roll,pitch,yaw,GyroX,GyroY,GyroZ,x_acc,y_acc,z_acc,latitude,longitude,altitude,north_vel,east_vel,ground_vel,ins_status,modestatus,system_ms
-0.534976,-1.094687,1.262083,0.128174,0.311279,-0.018311,7.405755,-5.004083,3.874938,0.000000,0.000000,0.000000,0.000000,0.000000,0.000000,20,1,315988755515
-0.534976,-1.094687,1.262083,0.000000,-0.265503,0.274658,7.481032,-4.925222,3.753062,0.000000,0.000000,0.000000,0.000000,0.000000,0.000000,20,1,315988755525
-0.534976,-1.094687,1.262083,-0.210571,-0.164795,-0.247192,7.549139,-5.014836,3.799662,0.000000,0.000000,0.000000,0.000000,0.000000,0.000000,20,1,315988755535
-0.534976,-1.094687,1.262083,0.247192,0.531006,-0.082397,7.398586,-5.022005,3.874938,0.000000,0.000000,0.000000,0.000000,0.000000,0.000000,20,1,315988755545
-0.534976,-1.094687,1.262083,0.000000,-0.421143,0.119019,7.473863,-4.928806,3.756647,0.000000,0.000000,0.000000,0.000000,0.000000,0.000000,20,1,315988755555
-0.534976,-1.094687,1.262083,-0.311279,-0.183105,-0.155640,7.570646,-5.000498,3.781739,0.000000,0.000000,0.000000,0.000000,0.000000,0.000000,20,1,315988755565
-0.534976,-1.094687,1.262083,0.311279,0.485229,-0.018311,7.416509,-5.025590,3.889276,0.000000,0.000000,0.000000,0.000000,0.000000,0.000000,20,1,315988755575
-0.534976,-1.094687,1.262083,0.073242,-0.155640,0.192261,7.473863,-4.928806,3.760231,0.000000,0.000000,0.000000,0.000000,0.000000,0.000000,20,1,315988755585
-0.534976,-1.094687,1.262083,-0.274658,-0.256348,-0.201416,7.534801,-4.993329,3.835507,0.000000,0.000000,0.000000,0.000000,0.000000,0.000000,20,1,315988755595
-0.534976,-1.094687,1.262083,0.128174,0.228882,-0.100708,7.395002,-5.025590,3.885692,0.000000,0.000000,0.000000,0.000000,0.000000,0.000000,20,1,315988755605
-0.534976,-1.094687,1.262083,0.119019,-0.119019,0.274658,7.502539,-4.925222,3.706462,0.000000,0.000000,0.000000,0.000000,0.000000,0.000000,20,1,315988755615
-0.534976,-1.094687,1.262083,-0.320435,-0.173950,-0.183105,7.584985,-4.986160,3.745893,0.000000,0.000000,0.000000,0.000000,0.000000,0.000000,20,1,315988755625
-0.534976,-1.094687,1.262083,0.283813,0.494385,-0.009155,7.423678,-5.007667,3.874938,0.000000,0.000000,0.000000,0.000000,0.000000,0.000000,20,1,315988755635
-0.534976,-1.094495,1.262083,0.366211,-0.082397,0.292969,7.477447,-4.925222,3.735139,0.000000,0.000000,0.000000,0.000000,0.000000,0.000000,20,1,315988755645
-0.534784,-1.094687,1.262083,-0.311279,-0.173950,-0.320435,7.606492,-4.982575,3.778154,0.000000,0.000000,0.000000,0.000000,0.000000,0.000000,20,1,315988755655
-0.534784,-1.094687,1.262083,0.164795,0.357056,-0.045776,7.405755,-5.004083,3.885692,0.000000,0.000000,0.000000,0.000000,0.000000,0.000000,20,1,315988755665
-0.534784,-1.094495,1.262083,0.045776,-0.155640,0.292969,7.481032,-4.928806,3.760231,0.000000,0.000000,0.000000,0.000000,0.000000,0.000000,20,1,315988755675
-0.534784,-1.094687,1.262083,-0.292969,-0.155640,-0.219727,7.595739,-5.000498,3.781739,0.000000,0.000000,0.000000,0.000000,0.000000,0.000000,20,1,315988755685
-0.534784,-1.094495,1.262083,0.256348,0.485229,0.036621,7.412925,-5.011252,3.900030,0.000000,0.000000,0.000000,0.000000,0.000000,0.000000,20,1,315988755695
-0.534784,-1.094495,1.262083,0.146484,-0.036621,0.311279,7.502539,-4.939560,3.763816,0.000000,0.000000,0.000000,0.000000,0.000000,0.000000,20,1,315988755705
-0.534784,-1.094687,1.262083,-0.357056,-0.311279,-0.183105,7.595739,-4.989744,3.753062,0.000000,0.000000,0.000000,0.000000,0.000000,0.000000,20,1,315988755715
-0.534784,-1.094495,1.262083,0.173950,0.393677,-0.054932,7.448770,-5.039928,3.871353,0.000000,0.000000,0.000000,0.000000,0.000000,0.000000,20,1,315988755725
-0.534784,-1.094495,1.262083,0.109863,-0.320435,0.219727,7.455940,-4.928806,3.763816,0.000000,0.000000,0.000000,0.000000,0.000000,0.000000,20,1,315988755735
-0.534784,-1.094495,1.262083,-0.192261,-0.228882,-0.155640,7.592154,-5.004083,3.799662,0.000000,0.000000,0.000000,0.000000,0.000000,0.000000,20,1,315988755745
-0.534784,-1.094495,1.262083,0.119019,0.585938,-0.027466,7.445186,-5.032759,3.903615,0.000000,0.000000,0.000000,0.000000,0.000000,0.000000,20,1,315988755755
-0.534784,-1.094495,1.262083,0.228882,-0.082397,0.338745,7.502539,-4.932391,3.731554,0.000000,0.000000,0.000000,0.000000,0.000000,0.000000,20,1,315988755765
-0.534784,-1.094495,1.262083,-0.329590,-0.283813,-0.320435,7.599323,-4.993329,3.753062,0.000000,0.000000,0.000000,0.000000,0.000000,0.000000,20,1,315988755775
-0.534784,-1.094495,1.262083,0.137329,0.402832,-0.045776,7.448770,-5.032759,3.874938,0.000000,0.000000,0.000000,0.000000,0.000000,0.000000,20,1,315988755785
-0.534784,-1.094495,1.262083,0.109863,0.000000,0.347900,7.534801,-4.932391,3.738724,0.000000,0.000000,0.000000,0.000000,0.000000,0.000000,20,1,315988755795
-0.534784,-1.094495,1.262083,-0.210571,-0.036621,-0.201416,7.602908,-5.004083,3.778154,0.000000,0.000000,0.000000,0.000000,0.000000,0.000000,20,1,315988755805
-0.534784,-1.094495,1.262083,0.274658,0.494385,-0.045776,7.434432,-5.032759,3.907199,0.000000,0.000000,0.000000,0.000000,0.000000,0.000000,20,1,315988755815
-0.534784,-1.094303,1.262083,0.247192,0.054932,0.357056,7.534801,-4.935975,3.785323,0.000000,0.000000,0.000000,0.000000,0.000000,0.000000,20,1,315988755825
-0.534784,-1.094495,1.262083,-0.366211,-0.320435,-0.201416,7.577816,-4.978990,3.763816,0.000000,0.000000,0.000000,0.000000,0.000000,0.000000,20,1,315988755835
-0.534784,-1.094495,1.262083,0.036621,0.430298,-0.119019,7.452355,-5.039928,3.910784,0.000000,0.000000,0.000000,0.000000,0.000000,0.000000,20,1,315988755845
-0.534784,-1.094303,1.262083,0.292969,-0.018311,0.366211,7.502539,-4.946729,3.753062,0.000000,0.000000,0.000000,0.000000,0.000000,0.000000,20,1,315988755855
-0.534784,-1.094495,1.262083,-0.265503,-0.146484,-0.219727,7.613661,-5.004083,3.753062,0.000000,0.000000,0.000000,0.000000,0.000000,0.000000,20,1,315988755865
-0.534784,-1.094495,1.262083,0.173950,0.485229,-0.009155,7.455940,-5.036344,3.889276,0.000000,0.000000,0.000000,0.000000,0.000000,0.000000,20,1,315988755875
-0.534784,-1.094303,1.262083,0.283813,0.009155,0.274658,7.498955,-4.928806,3.778154,0.000000,0.000000,0.000000,0.000000,0.000000,0.000000,20,1,315988755885
-0.534784,-1.094495,1.262083,-0.302124,-0.247192,-0.064087,7.584985,-4.993329,3.756647,0.000000,0.000000,0.000000,0.000000,0.000000,0.000000,20,1,315988755895
-0.534784,-1.094495,1.262083,0.201416,0.485229,-0.155640,7.448770,-5.039928,3.889276,0.000000,0.000000,0.000000,0.000000,0.000000,0.000000,20,1,315988755905
-0.534784,-1.094303,1.262083,0.201416,-0.054932,0.228882,7.502539,-4.946729,3.749477,0.000000,0.000000,0.000000,0.000000,0.000000,0.000000,20,1,315988755915
-0.534784,-1.094495,1.262083,-0.155640,-0.201416,-0.091553,7.606492,-4.978990,3.753062,0.000000,0.000000,0.000000,0.000000,0.000000,0.000000,20,1,315988755925
-0.534592,-1.094495,1.262083,0.173950,0.622559,-0.100708,7.477447,-5.050682,3.914368,0.000000,0.000000,0.000000,0.000000,0.000000,0.000000,20,1,315988755935
-0.534592,-1.094495,1.262083,0.265503,-0.054932,0.430298,7.509708,-4.935975,3.774569,0.000000,0.000000,0.000000,0.000000,0.000000,0.000000,20,1,315988755945
-0.534784,-1.094495,1.262083,-0.375366,-0.283813,-0.238037,7.584985,-4.986160,3.781739,0.000000,0.000000,0.000000,0.000000,0.000000,0.000000,20,1,315988755955
-0.534784,-1.094495,1.262083,-0.183105,-0.119019,-0.201416,7.610077,-4.986160,3.760231,0.000000,0.000000,0.000000,0.000000,0.000000,0.000000,20,1,315988755985
-0.534784,-1.094495,1.262083,0.146484,0.567627,-0.082397,7.484616,-5.068605,3.896445,0.000000,0.000000,0.000000,0.000000,0.000000,0.000000,20,1,315988755995
-0.534784,-1.094303,1.262083,0.347900,0.128174,0.283813,7.531216,-4.925222,3.749477,0.000000,0.000000,0.000000,0.000000,0.000000,0.000000,20,1,315988756005
-0.534784,-1.094495,1.262083,-0.256348,-0.302124,-0.119019,7.620831,-4.993329,3.756647,0.000000,0.000000,0.000000,0.000000,0.000000,0.000000,20,1,315988756015
-0.534784,-1.094495,1.262083,0.155640,0.402832,-0.146484,7.452355,-5.029175,3.903615,0.000000,0.000000,0.000000,0.000000,0.000000,0.000000,20,1,315988756025
-0.534784,-1.094303,1.262083,0.292969,0.054932,0.411987,7.516878,-4.935975,3.803246,0.000000,0.000000,0.000000,0.000000,0.000000,0.000000,20,1,315988756035
-0.534784,-1.094495,1.262083,-0.146484,-0.311279,-0.054932,7.595739,-4.978990,3.742308,0.000000,0.000000,0.000000,0.000000,0.000000,0.000000,20,1,315988756045
-0.534784,-1.094495,1.262083,0.164795,0.411987,-0.036621,7.481032,-5.065021,3.896445,0.000000,0.000000,0.000000,0.000000,0.000000,0.000000,20,1,315988756055
-0.534784,-1.094303,1.262083,0.292969,0.036621,0.338745,7.524047,-4.935975,3.767400,0.000000,0.000000,0.000000,0.000000,0.000000,0.000000,20,1,315988756065
-0.534784,-1.094495,1.262083,-0.155640,-0.164795,-0.155640,7.624415,-4.986160,3.735139,0.000000,0.000000,0.000000,0.000000,0.000000,0.000000,20,1,315988756075
-0.534784,-1.094495,1.262083,0.173950,0.576782,-0.155640,7.473863,-5.057851,3.900030,0.000000,0.000000,0.000000,0.000000,0.000000,0.000000,20,1,315988756085
-0.534784,-1.094303,1.262083,0.210571,0.164795,0.292969,7.498955,-4.935975,3.799662,0.000000,0.000000,0.000000,0.000000,0.000000,0.000000,20,1,315988756095
-0.534784,-1.094495,1.262083,-0.137329,-0.210571,-0.173950,7.613661,-4.989744,3.763816,0.000000,0.000000,0.000000,0.000000,0.000000,0.000000,20,1,315988756135
-0.534784,-1.094495,1.261891,-0.045776,0.430298,-0.064087,7.473863,-5.061436,3.950214,0.000000,0.000000,0.000000,0.000000,0.000000,0.000000,20,1,315988756145
-0.534784,-1.094303,1.262083,0.448608,0.173950,0.283813,7.545554,-4.943145,3.781739,0.000000,0.000000,0.000000,0.000000,0.000000,0.000000,20,1,315988756155
-0.534784,-1.094495,1.262083,-0.164795,-0.201416,0.027466,7.602908,-4.968237,3.756647,0.000000,0.000000,0.000000,0.000000,0.000000,0.000000,20,1,315988756165
-0.534784,-1.094495,1.261891,0.137329,0.494385,-0.164795,7.481032,-5.072190,3.946630,0.000000,0.000000,0.000000,0.000000,0.000000,0.000000,20,1,315988756175
-0.534784,-1.094495,1.262083,0.347900,0.045776,0.384521,7.502539,-4.918052,3.806831,0.000000,0.000000,0.000000,0.000000,0.000000,0.000000,20,1,315988756185
-0.534784,-1.094495,1.261891,-0.155640,-0.320435,-0.173950,7.574231,-4.968237,3.788908,0.000000,0.000000,0.000000,0.000000,0.000000,0.000000,20,1,315988756195
-0.534784,-1.094495,1.261891,0.054932,0.247192,-0.082397,7.481032,-5.061436,3.939460,0.000000,0.000000,0.000000,0.000000,0.000000,0.000000,20,1,315988756205
-0.534784,-1.094495,1.262083,0.311279,0.366211,0.338745,7.534801,-4.928806,3.799662,0.000000,0.000000,0.000000,0.000000,0.000000,0.000000,20,1,315988756215
-0.534784,-1.094495,1.262083,-0.137329,-0.183105,-0.018311,7.606492,-4.986160,3.742308,0.000000,0.000000,0.000000,0.000000,0.000000,0.000000,20,1,315988756225
-0.534784,-1.094495,1.261891,0.091553,0.448608,-0.064087,7.481032,-5.065021,3.928707,0.000000,0.000000,0.000000,0.000000,0.000000,0.000000,20,1,315988756235
-0.534784,-1.094495,1.262083,0.320435,0.109863,0.292969,7.498955,-4.939560,3.871353,0.000000,0.000000,0.000000,0.000000,0.000000,0.000000,20,1,315988756245
-0.534784,-1.094495,1.262083,-0.265503,-0.265503,-0.109863,7.624415,-4.978990,3.756647,0.000000,0.000000,0.000000,0.000000,0.000000,0.000000,20,1,315988756255
-0.534784,-1.094495,1.261891,0.091553,0.439453,-0.054932,7.491786,-5.079359,3.917953,0.000000,0.000000,0.000000,0.000000,0.000000,0.000000,20,1,315988756265
-0.534784,-1.094495,1.262083,0.375366,0.247192,0.448608,7.506124,-4.957483,3.831923,0.000000,0.000000,0.000000,0.000000,0.000000,0.000000,20,1,315988756275
-0.534784,-1.094495,1.262083,-0.064087,-0.228882,0.000000,7.610077,-4.968237,3.767400,0.000000,0.000000,0.000000,0.000000,0.000000,0.000000,20,1,315988756285
-0.534784,-1.094495,1.262083,0.192261,0.292969,-0.210571,7.491786,-5.079359,3.957383,0.000000,0.000000,0.000000,0.000000,0.000000,0.000000,20,1,315988756295
-0.534784,-1.094495,1.262083,0.366211,0.073242,0.338745,7.513293,-4.943145,3.831923,0.000000,0.000000,0.000000,0.000000,0.000000,0.000000,20,1,315988756305
-0.534784,-1.094495,1.262083,-0.183105,-0.256348,-0.082397,7.595739,-4.957483,3.774569,0.000000,0.000000,0.000000,0.000000,0.000000,0.000000,20,1,315988756315
-0.534784,-1.094495,1.262083,0.064087,0.311279,-0.091553,7.509708,-5.082943,3.946630,0.000000,0.000000,0.000000,0.000000,0.000000,0.000000,20,1,315988756325
-0.534784,-1.094303,1.262083,0.421143,0.311279,0.338745,7.498955,-4.935975,3.867769,0.000000,0.000000,0.000000,0.000000,0.000000,0.000000,20,1,315988756335
-0.534976,-1.094495,1.262083,-0.247192,-0.274658,0.009155,7.599323,-4.968237,3.799662,0.000000,0.000000,0.000000,0.000000,0.000000,0.000000,20,1,315988756345
-0.534784,-1.094495,1.262083,0.000000,0.357056,-0.329590,7.491786,-5.075774,3.960968,0.000000,0.000000,0.000000,0.000000,0.000000,0.000000,20,1,315988756355
-0.534784,-1.094495,1.262083,0.283813,0.274658,0.402832,7.534801,-4.950314,3.831923,0.000000,0.000000,0.000000,0.000000,0.000000,0.000000,20,1,315988756365
-0.534976,-1.094495,1.262083,-0.164795,-0.329590,-0.164795,7.602908,-4.978990,3.760231,0.000000,0.000000,0.000000,0.000000,0.000000,0.000000,20,1,315988756375
-0.534784,-1.094495,1.262083,0.109863,0.503540,-0.192261,7.459524,-5.068605,3.968137,0.000000,0.000000,0.000000,0.000000,0.000000,0.000000,20,1,315988756385
-0.534784,-1.094495,1.262083,0.402832,0.393677,0.347900,7.513293,-4.953898,3.900030,0.000000,0.000000,0.000000,0.000000,0.000000,0.000000,20,1,315988756395
-0.534784,-1.094495,1.262083,0.082397,-0.201416,-0.018311,7.610077,-4.964652,3.770985,0.000000,0.000000,0.000000,0.000000,0.000000,0.000000,20,1,315988756405
-0.534784,-1.094495,1.262083,-0.018311,0.256348,-0.164795,7.488201,-5.068605,3.950214,0.000000,0.000000,0.000000,0.000000,0.000000,0.000000,20,1,315988756415
-0.534784,-1.094495,1.262083,0.366211,0.164795,0.320435,7.498955,-4.928806,3.853430,0.000000,0.000000,0.000000,0.000000,0.000000,0.000000,20,1,315988756425
-0.534784,-1.094495,1.262083,-0.091553,-0.210571,-0.064087,7.584985,-4.978990,3.756647,0.000000,0.000000,0.000000,0.000000,0.000000,0.000000,20,1,315988756435
-0.534784,-1.094495,1.262083,-0.027466,0.411987,-0.228882,7.463109,-5.061436,3.935876,0.000000,0.000000,0.000000,0.000000,0.000000,0.000000,20,1,315988756445
-0.534784,-1.094495,1.262083,0.366211,0.311279,0.338745,7.470278,-4.968237,3.925122,0.000000,0.000000,0.000000,0.000000,0.000000,0.000000,20,1,315988756455
-0.534784,-1.094495,1.262083,-0.064087,-0.238037,0.000000,7.613661,-4.978990,3.767400,0.000000,0.000000,0.000000,0.000000,0.000000,0.000000,20,1,315988756465
-0.534784,-1.094687,1.262083,-0.027466,0.283813,-0.192261,7.484616,-5.057851,3.943045,0.000000,0.000000,0.000000,0.000000,0.000000,0.000000,20,1,315988756475
-0.534784,-1.094495,1.262083,0.228882,0.146484,0.338745,7.455940,-4.939560,3.917953,0.000000,0.000000,0.000000,0.000000,0.000000,0.000000,20,1,315988756485
-0.534784,-1.094495,1.262083,-0.091553,-0.347900,-0.036621,7.599323,-4.961068,3.760231,0.000000,0.000000,0.000000,0.000000,0.000000,0.000000,20,1,315988756495
-0.534784,-1.094687,1.262083,-0.009155,0.494385,-0.183105,7.452355,-5.082943,3.964553,0.000000,0.000000,0.000000,0.000000,0.000000,0.000000,20,1,315988756505
-0.534784,-1.094495,1.262083,0.219727,0.283813,0.219727,7.481032,-4.971821,3.921537,0.000000,0.000000,0.000000,0.000000,0.000000,0.000000,20,1,315988756515
-0.534784,-1.094687,1.262083,-0.128174,-0.338745,0.073242,7.581400,-4.943145,3.796077,0.000000,0.000000,0.000000,0.000000,0.000000,0.000000,20,1,315988756525
-0.534784,-1.094687,1.262083,-0.054932,0.247192,-0.357056,7.470278,-5.082943,3.960968,0.000000,0.000000,0.000000,0.000000,0.000000,0.000000,20,1,315988756535
-0.534784,-1.094687,1.262083,0.311279,0.100708,0.338745,7.488201,-4.939560,3.889276,0.000000,0.000000,0.000000,0.000000,0.000000,0.000000,20,1,315988756545
-0.534784,-1.094687,1.262083,-0.109863,-0.256348,-0.073242,7.610077,-4.935975,3.792492,0.000000,0.000000,0.000000,0.000000,0.000000,0.000000,20,1,315988756555
-0.534784,-1.094687,1.262083,0.000000,0.430298,-0.183105,7.463109,-5.072190,3.946630,0.000000,0.000000,0.000000,0.000000,0.000000,0.000000,20,1,315988756565
-0.534784,-1.094687,1.262083,0.411987,0.347900,0.338745,7.470278,-4.968237,3.925122,0.000000,0.000000,0.000000,0.000000,0.000000,0.000000,20,1,315988756575
-0.534784,-1.094687,1.262083,-0.146484,-0.503540,-0.036621,7.581400,-4.957483,3.792492,0.000000,0.000000,0.000000,0.000000,0.000000,0.000000,20,1,315988756585
-0.534784,-1.094687,1.262083,-0.045776,0.192261,-0.265503,7.441601,-5.057851,3.964553,0.000000,0.000000,0.000000,0.000000,0.000000,0.000000,20,1,315988756595
-0.534784,-1.094687,1.262083,0.302124,0.054932,0.283813,7.438017,-4.986160,3.946630,0.000000,0.000000,0.000000,0.000000,0.000000,0.000000,20,1,315988756605
-0.534784,-1.094687,1.262083,-0.128174,-0.338745,0.183105,7.628000,-4.950314,3.753062,0.000000,0.000000,0.000000,0.000000,0.000000,0.000000,20,1,315988756615
-0.534784,-1.094687,1.262083,0.018311,0.384521,-0.100708,7.466693,-5.061436,3.943045,0.000000,0.000000,0.000000,0.000000,0.000000,0.000000,20,1,315988756625
-0.534784,-1.094687,1.262083,0.366211,0.311279,0.173950,7.441601,-4.993329,3.975306,0.000000,0.000000,0.000000,0.000000,0.000000,0.000000,20,1,315988756635
-0.534784,-1.094687,1.262274,-0.064087,-0.347900,-0.054932,7.584985,-4.935975,3.831923,0.000000,0.000000,0.000000,0.000000,0.000000,0.000000,20,1,315988756645
-0.534784,-1.094687,1.262083,-0.183105,0.238037,-0.256348,7.455940,-5.079359,3.971722,0.000000,0.000000,0.000000,0.000000,0.000000,0.000000,20,1,315988756655
-0.534784,-1.094687,1.262274,0.329590,0.155640,0.338745,7.420094,-4.971821,3.932291,0.000000,0.000000,0.000000,0.000000,0.000000,0.000000,20,1,315988756665
-0.534784,-1.094687,1.262274,-0.128174,-0.476074,-0.018311,7.599323,-4.935975,3.763816,0.000000,0.000000,0.000000,0.000000,0.000000,0.000000,20,1,315988756675
-0.534784,-1.094687,1.262274,0.054932,0.393677,-0.311279,7.470278,-5.082943,3.946630,0.000000,0.000000,0.000000,0.000000,0.000000,0.000000,20,1,315988756685
-0.534784,-1.094687,1.262274,0.421143,0.247192,0.256348,7.405755,-4.968237,3.950214,0.000000,0.000000,0.000000,0.000000,0.000000,0.000000,20,1,315988756695
-0.534784,-1.094687,1.262274,-0.201416,-0.457764,0.009155,7.620831,-4.943145,3.842677,0.000000,0.000000,0.000000,0.000000,0.000000,0.000000,20,1,315988756705
-0.534784,-1.094687,1.262274,-0.274658,0.302124,-0.265503,7.445186,-5.047098,3.960968,0.000000,0.000000,0.000000,0.000000,0.000000,0.000000,20,1,315988756715
-0.534784,-1.094687,1.262274,0.146484,0.155640,0.292969,7.420094,-4.982575,3.943045,0.000000,0.000000,0.000000,0.000000,0.000000,0.000000,20,1,315988756725
-0.534784,-1.094687,1.262274,-0.109863,-0.228882,0.073242,7.570646,-4.914468,3.806831,0.000000,0.000000,0.000000,0.000000,0.000000,0.000000,20,1,315988756735
-0.534784,-1.094687,1.262274,-0.027466,0.256348,-0.338745,7.423678,-5.057851,3.982475,0.000000,0.000000,0.000000,0.000000,0.000000,0.000000,20,1,315988756745
-0.534784,-1.094687,1.262274,0.292969,0.256348,0.302124,7.441601,-4.968237,3.946630,0.000000,0.000000,0.000000,0.000000,0.000000,0.000000,20,1,315988756755
-0.534784,-1.094687,1.262274,-0.173950,-0.448608,0.045776,7.574231,-4.943145,3.803246,0.000000,0.000000,0.000000,0.000000,0.000000,0.000000,20,1,315988756765
-0.534784,-1.094687,1.262274,-0.238037,0.128174,-0.265503,7.441601,-5.057851,3.950214,0.000000,0.000000,0.000000,0.000000,0.000000,0.000000,20,1,315988756775
-0.534784,-1.094495,1.262274,0.173950,0.164795,0.302124,7.402171,-4.996913,3.971722,0.000000,0.000000,0.000000,0.000000,0.000000,0.000000,20,1,315988756785
-0.534784,-1.094687,1.262274,-0.201416,-0.283813,0.073242,7.574231,-4.932391,3.799662,0.000000,0.000000,0.000000,0.000000,0.000000,0.000000,20,1,315988756795
-0.534784,-1.094687,1.262083,-0.073242,0.265503,-0.338745,7.438017,-5.050682,3.960968,0.000000,0.000000,0.000000,0.000000,0.000000,0.000000,20,1,315988756805
-0.534784,-1.094495,1.262274,0.292969,0.219727,0.256348,7.373494,-5.000498,3.993229,0.000000,0.000000,0.000000,0.000000,0.000000,0.000000,20,1,315988756815
-0.534784,-1.094687,1.262274,-0.201416,-0.476074,0.128174,7.584985,-4.943145,3.814000,0.000000,0.000000,0.000000,0.000000,0.000000,0.000000,20,1,315988756825
-0.534784,-1.094687,1.262083,-0.238037,0.027466,-0.201416,7.434432,-5.057851,3.975306,0.000000,0.000000,0.000000,0.000000,0.000000,0.000000,20,1,315988756835
-0.534784,-1.094495,1.262274,0.109863,0.164795,0.128174,7.330479,-4.982575,4.003983,0.000000,0.000000,0.000000,0.000000,0.000000,0.000000,20,1,315988756845
-0.534784,-1.094495,1.262274,-0.018311,-0.384521,0.137329,7.563477,-4.925222,3.817584,0.000000,0.000000,0.000000,0.000000,0.000000,0.000000,20,1,315988756855
-0.534784,-1.094687,1.262274,-0.091553,0.292969,-0.320435,7.445186,-5.061436,3.935876,0.000000,0.000000,0.000000,0.000000,0.000000,0.000000,20,1,315988756865
-0.534784,-1.094495,1.262274,0.302124,0.128174,0.137329,7.377079,-5.011252,3.960968,0.000000,0.000000,0.000000,0.000000,0.000000,0.000000,20,1,315988756875
-0.534784,-1.094495,1.262274,-0.183105,-0.485229,0.183105,7.556308,-4.918052,3.821169,0.000000,0.000000,0.000000,0.000000,0.000000,0.000000,20,1,315988756885
-0.534784,-1.094495,1.262274,-0.192261,0.100708,-0.302124,7.445186,-5.072190,3.968137,0.000000,0.000000,0.000000,0.000000,0.000000,0.000000,20,1,315988756895
-0.534784,-1.094495,1.262274,0.146484,0.311279,0.109863,7.344817,-4.986160,3.971722,0.000000,0.000000,0.000000,0.000000,0.000000,0.000000,20,1,315988756905
-0.534784,-1.094495,1.262274,-0.183105,-0.503540,0.119019,7.524047,-4.935975,3.853430,0.000000,0.000000,0.000000,0.000000,0.000000,0.000000,20,1,315988756915
-0.534784,-1.094495,1.262274,-0.238037,0.109863,-0.238037,7.412925,-5.050682,3.989645,0.000000,0.000000,0.000000,0.000000,0.000000,0.000000,20,1,315988756925
-0.534784,-1.094495,1.262274,0.100708,0.073242,0.137329,7.362740,-4.986160,3.943045,0.000000,0.000000,0.000000,0.000000,0.000000,0.000000,20,1,315988756935
-0.534784,-1.094495,1.262274,-0.201416,-0.631714,0.164795,7.538385,-4.928806,3.796077,0.000000,0.000000,0.000000,0.000000,0.000000,0.000000,20,1,315988756945
-0.534784,-1.094495,1.262274,-0.228882,0.238037,-0.320435,7.427263,-5.068605,3.968137,0.000000,0.000000,0.000000,0.000000,0.000000,0.000000,20,1,315988756955
-0.534784,-1.094495,1.262274,-0.128174,-0.375366,0.100708,7.534801,-4.928806,3.810415,0.000000,0.000000,0.000000,0.000000,0.000000,0.000000,20,1,315988757005
-0.534784,-1.094495,1.262274,-0.238037,0.018311,-0.357056,7.448770,-5.057851,3.943045,0.000000,0.000000,0.000000,0.000000,0.000000,0.000000,20,1,315988757015
-0.534784,-1.094303,1.262274,0.265503,0.210571,0.173950,7.337648,-5.000498,3.964553,0.000000,0.000000,0.000000,0.000000,0.000000,0.000000,20,1,315988757025
-0.534784,-1.094495,1.262274,-0.119019,-0.384521,0.128174,7.556308,-4.928806,3.806831,0.000000,0.000000,0.000000,0.000000,0.000000,0.000000,20,1,315988757035
-0.534784,-1.094495,1.262274,-0.128174,0.146484,-0.265503,7.430848,-5.054267,3.953799,0.000000,0.000000,0.000000,0.000000,0.000000,0.000000,20,1,315988757045
-0.534784,-1.094303,1.262274,0.155640,0.064087,0.082397,7.312556,-4.982575,3.971722,0.000000,0.000000,0.000000,0.000000,0.000000,0.000000,20,1,315988757055
-0.534784,-1.094303,1.262274,-0.238037,-0.494385,0.073242,7.513293,-4.918052,3.835507,0.000000,0.000000,0.000000,0.000000,0.000000,0.000000,20,1,315988757065
-0.534784,-1.094495,1.262274,-0.283813,-0.036621,-0.311279,7.434432,-5.057851,3.950214,0.000000,0.000000,0.000000,0.000000,0.000000,0.000000,20,1,315988757075
-0.534976,-1.094303,1.262274,0.219727,0.228882,0.119019,7.337648,-4.989744,3.968137,0.000000,0.000000,0.000000,0.000000,0.000000,0.000000,20,1,315988757085
-0.534976,-1.094303,1.262274,0.027466,-0.448608,0.155640,7.488201,-4.896545,3.799662,0.000000,0.000000,0.000000,0.000000,0.000000,0.000000,20,1,315988757095
-0.534976,-1.094495,1.262274,-0.201416,0.018311,-0.320435,7.452355,-5.061436,3.935876,0.000000,0.000000,0.000000,0.000000,0.000000,0.000000,20,1,315988757105
-0.534976,-1.094303,1.262274,0.274658,0.283813,0.119019,7.351987,-4.996913,3.935876,0.000000,0.000000,0.000000,0.000000,0.000000,0.000000,20,1,315988757115
-0.534976,-1.094303,1.262274,0.320435,0.173950,0.073242,7.341233,-4.986160,3.968137,0.000000,0.000000,0.000000,0.000000,0.000000,0.000000,20,1,315988757145
-0.534976,-1.094303,1.262274,-0.091553,-0.393677,0.137329,7.484616,-4.925222,3.810415,0.000000,0.000000,0.000000,0.000000,0.000000,0.000000,20,1,315988757155
-0.534976,-1.094303,1.262274,-0.219727,-0.109863,-0.247192,7.455940,-5.054267,3.889276,0.000000,0.000000,0.000000,0.000000,0.000000,0.000000,20,1,315988757165
-0.534976,-1.094303,1.262274,0.201416,0.219727,0.036621,7.341233,-4.986160,3.964553,0.000000,0.000000,0.000000,0.000000,0.000000,0.000000,20,1,315988757175
-0.534976,-1.094303,1.262274,-0.183105,-0.512695,0.054932,7.506124,-4.935975,3.828338,0.000000,0.000000,0.000000,0.000000,0.000000,0.000000,20,1,315988757185
-0.534976,-1.094303,1.262274,-0.366211,-0.027466,-0.274658,7.452355,-5.022005,3.925122,0.000000,0.000000,0.000000,0.000000,0.000000,0.000000,20,1,315988757195
-0.534976,-1.094303,1.262274,0.338745,0.219727,0.228882,7.326895,-4.996913,3.993229,0.000000,0.000000,0.000000,0.000000,0.000000,0.000000,20,1,315988757205
-0.534976,-1.094303,1.262274,-0.146484,-0.521851,0.155640,7.527631,-4.900130,3.842677,0.000000,0.000000,0.000000,0.000000,0.000000,0.000000,20,1,315988757215
-0.534976,-1.094303,1.262274,-0.292969,-0.128174,-0.283813,7.477447,-5.054267,3.910784,0.000000,0.000000,0.000000,0.000000,0.000000,0.000000,20,1,315988757225
-0.534976,-1.094303,1.262274,0.109863,0.274658,-0.009155,7.291049,-4.989744,3.982475,0.000000,0.000000,0.000000,0.000000,0.000000,0.000000,20,1,315988757235
-0.534976,-1.094303,1.262274,-0.119019,-0.503540,0.146484,7.481032,-4.921637,3.860600,0.000000,0.000000,0.000000,0.000000,0.000000,0.000000,20,1,315988757245
-0.534976,-1.094303,1.262274,-0.274658,-0.036621,-0.292969,7.463109,-5.039928,3.932291,0.000000,0.000000,0.000000,0.000000,0.000000,0.000000,20,1,315988757255
-0.534976,-1.094303,1.262274,0.201416,0.219727,0.119019,7.316141,-4.978990,3.950214,0.000000,0.000000,0.000000,0.000000,0.000000,0.000000,20,1,315988757265
-0.534976,-1.094303,1.262274,-0.054932,-0.439453,0.036621,7.531216,-4.864284,3.831923,0.000000,0.000000,0.000000,0.000000,0.000000,0.000000,20,1,315988757275
-0.534976,-1.094303,1.262274,-0.357056,-0.109863,-0.155640,7.420094,-5.057851,3.864184,0.000000,0.000000,0.000000,0.000000,0.000000,0.000000,20,1,315988757285
-0.534976,-1.094303,1.262274,-0.054932,0.192261,0.173950,7.319725,-5.082943,3.950214,0.000000,0.000000,0.000000,0.000000,0.000000,0.000000,20,1,315988757295
-0.534976,-1.094303,1.262274,-0.228882,-0.485229,0.091553,7.427263,-4.986160,3.889276,0.000000,0.000000,0.000000,0.000000,0.000000,0.000000,20,1,315988757305
-0.534976,-1.094303,1.262274,-0.018311,-0.448608,-0.338745,7.498955,-5.025590,3.846261,0.000000,0.000000,0.000000,0.000000,0.000000,0.000000,20,1,315988757315
-0.534976,-1.094303,1.262466,0.338745,0.494385,0.064087,7.359156,-4.946729,3.914368,0.000000,0.000000,0.000000,0.000000,0.000000,0.000000,20,1,315988757325
-0.534976,-1.094112,1.262466,0.036621,-0.027466,-0.091553,7.441601,-4.867868,3.896445,0.000000,0.000000,0.000000,0.000000,0.000000,0.000000,20,1,315988757335
-0.534976,-1.094303,1.262466,-0.265503,-0.622559,-0.347900,7.498955,-5.022005,3.889276,0.000000,0.000000,0.000000,0.000000,0.000000,0.000000,20,1,315988757345
-0.534976,-1.094303,1.262466,0.036621,0.247192,0.146484,7.326895,-4.989744,3.914368,0.000000,0.000000,0.000000,0.000000,0.000000,0.000000,20,1,315988757355
-0.534976,-1.094112,1.262466,-0.274658,-0.201416,0.109863,7.452355,-4.961068,3.867769,0.000000,0.000000,0.000000,0.000000,0.000000,0.000000,20,1,315988757365
-0.534976,-1.094303,1.262466,-0.155640,-0.357056,-0.228882,7.481032,-5.065021,3.878522,0.000000,0.000000,0.000000,0.000000,0.000000,0.000000,20,1,315988757375
-0.534976,-1.094303,1.262466,0.054932,0.128174,-0.091553,7.276710,-4.982575,3.943045,0.000000,0.000000,0.000000,0.000000,0.000000,0.000000,20,1,315988757385
-0.534976,-1.094303,1.262466,-0.054932,-0.155640,0.064087,7.495370,-4.907299,3.828338,0.000000,0.000000,0.000000,0.000000,0.000000,0.000000,20,1,315988757395
-0.534976,-1.094303,1.262466,-0.238037,-0.219727,-0.320435,7.502539,-5.007667,3.874938,0.000000,0.000000,0.000000,0.000000,0.000000,0.000000,20,1,315988757405
-0.534976,-1.094303,1.262466,0.018311,0.128174,0.009155,7.344817,-4.986160,3.950214,0.000000,0.000000,0.000000,0.000000,0.000000,0.000000,20,1,315988757415
-0.534976,-1.094303,1.262466,-0.265503,-0.247192,0.109863,7.463109,-4.921637,3.839092,0.000000,0.000000,0.000000,0.000000,0.000000,0.000000,20,1,315988757425
-0.534976,-1.094303,1.262274,-0.228882,-0.173950,-0.283813,7.491786,-5.047098,3.874938,0.000000,0.000000,0.000000,0.000000,0.000000,0.000000,20,1,315988757435
-0.534976,-1.094303,1.262466,0.164795,0.283813,0.009155,7.276710,-5.014836,3.921537,0.000000,0.000000,0.000000,0.000000,0.000000,0.000000,20,1,315988757445
-0.534976,-1.094303,1.262466,-0.100708,-0.549316,0.045776,7.484616,-4.925222,3.835507,0.000000,0.000000,0.000000,0.000000,0.000000,0.000000,20,1,315988757455
-0.534976,-1.094303,1.262466,-0.238037,-0.247192,-0.265503,7.506124,-5.018421,3.831923,0.000000,0.000000,0.000000,0.000000,0.000000,0.000000,20,1,315988757465
-0.534976,-1.094303,1.262466,0.109863,0.311279,0.000000,7.344817,-4.989744,3.917953,0.000000,0.000000,0.000000,0.000000,0.000000,0.000000,20,1,315988757475
-0.534976,-1.094112,1.262466,0.000000,-0.311279,0.228882,7.473863,-4.932391,3.828338,0.000000,0.000000,0.000000,0.000000,0.000000,0.000000,20,1,315988757485
-0.534976,-1.094303,1.262466,-0.219727,0.000000,-0.283813,7.470278,-5.032759,3.889276,0.000000,0.000000,0.000000,0.000000,0.000000,0.000000,20,1,315988757495
-0.534976,-1.094303,1.262466,0.210571,0.164795,-0.045776,7.337648,-4.996913,3.928707,0.000000,0.000000,0.000000,0.000000,0.000000,0.000000,20,1,315988757505
-0.534976,-1.094303,1.262466,-0.210571,-0.521851,-0.054932,7.477447,-4.925222,3.806831,0.000000,0.000000,0.000000,0.000000,0.000000,0.000000,20,1,315988757515
-0.534976,-1.094303,1.262274,-0.448608,-0.283813,-0.311279,7.484616,-5.043513,3.885692,0.000000,0.000000,0.000000,0.000000,0.000000,0.000000,20,1,315988757525
-0.534976,-1.094303,1.262274,0.137329,0.210571,0.064087,7.337648,-5.018421,3.935876,0.000000,0.000000,0.000000,0.000000,0.000000,0.000000,20,1,315988757535
-0.534976,-1.094303,1.262466,0.000000,-0.265503,0.238037,7.459524,-4.918052,3.799662,0.000000,0.000000,0.000000,0.000000,0.000000,0.000000,20,1,315988757545
-0.534976,-1.094303,1.262274,-0.311279,0.000000,-0.219727,7.495370,-5.011252,3.864184,0.000000,0.000000,0.000000,0.000000,0.000000,0.000000,20,1,315988757555
-0.534976,-1.094303,1.262274,0.173950,0.274658,0.054932,7.316141,-5.000498,3.910784,0.000000,0.000000,0.000000,0.000000,0.000000,0.000000,20,1,315988757565
-0.534976,-1.094303,1.262466,-0.155640,-0.576782,-0.009155,7.488201,-4.918052,3.774569,0.000000,0.000000,0.000000,0.000000,0.000000,0.000000,20,1,315988757575
-0.534976,-1.094495,1.262274,-0.421143,-0.292969,-0.384521,7.509708,-5.036344,3.853430,0.000000,0.000000,0.000000,0.000000,0.000000,0.000000,20,1,315988757585
-0.534976,-1.094303,1.262274,0.045776,0.320435,0.018311,7.308972,-5.004083,3.935876,0.000000,0.000000,0.000000,0.000000,0.000000,0.000000,20,1,315988757595
-0.534976,-1.094303,1.262274,0.000000,-0.274658,0.146484,7.484616,-4.932391,3.792492,0.000000,0.000000,0.000000,0.000000,0.000000,0.000000,20,1,315988757605
-0.534976,-1.094495,1.262274,-0.109863,-0.109863,-0.183105,7.509708,-4.996913,3.806831,0.000000,0.000000,0.000000,0.000000,0.000000,0.000000,20,1,315988757615
-0.534976,-1.094303,1.262274,0.155640,0.320435,0.054932,7.312556,-4.982575,3.910784,0.000000,0.000000,0.000000,0.000000,0.000000,0.000000,20,1,315988757625
-0.534976,-1.094303,1.262274,-0.164795,-0.531006,0.219727,7.463109,-4.896545,3.767400,0.000000,0.000000,0.000000,0.000000,0.000000,0.000000,20,1,315988757635
-0.534976,-1.094495,1.262274,-0.430298,-0.247192,-0.320435,7.513293,-5.014836,3.853430,0.000000,0.000000,0.000000,0.000000,0.000000,0.000000,20,1,315988757645
-0.534976,-1.094495,1.262274,0.082397,0.173950,-0.100708,7.323310,-4.996913,3.885692,0.000000,0.000000,0.000000,0.000000,0.000000,0.000000,20,1,315988757655
-0.534976,-1.094495,1.262274,0.036621,-0.146484,0.256348,7.466693,-4.968237,3.785323,0.000000,0.000000,0.000000,0.000000,0.000000,0.000000,20,1,315988757665
-0.534976,-1.094495,1.262274,-0.210571,0.000000,-0.347900,7.502539,-5.022005,3.878522,0.000000,0.000000,0.000000,0.000000,0.000000,0.000000,20,1,315988757675
-0.534976,-1.094495,1.262274,0.274658,0.192261,-0.045776,7.351987,-4.993329,3.921537,0.000000,0.000000,0.000000,0.000000,0.000000,0.000000,20,1,315988757685
-0.534976,-1.094495,1.262274,-0.054932,-0.503540,0.064087,7.448770,-4.885791,3.767400,0.000000,0.000000,0.000000,0.000000,0.000000,0.000000,20,1,315988757695
-0.534976,-1.094495,1.262083,-0.366211,-0.183105,-0.311279,7.502539,-5.007667,3.849846,0.000000,0.000000,0.000000,0.000000,0.000000,0.000000,20,1,315988757705
-0.534976,-1.094495,1.262083,0.036621,0.119019,0.000000,7.337648,-5.011252,3.917953,0.000000,0.000000,0.000000,0.000000,0.000000,0.000000,20,1,315988757715
-0.534976,-1.094495,1.262274,-0.109863,-0.393677,0.292969,7.452355,-4.928806,3.763816,0.000000,0.000000,0.000000,0.000000,0.000000,0.000000,20,1,315988757725
-0.534976,-1.094495,1.262083,-0.183105,-0.109863,-0.338745,7.495370,-5.025590,3.857015,0.000000,0.000000,0.000000,0.000000,0.000000,0.000000,20,1,315988757735
-0.534976,-1.094495,1.262083,0.192261,0.347900,-0.036621,7.341233,-5.007667,3.921537,0.000000,0.000000,0.000000,0.000000,0.000000,0.000000,20,1,315988757745
-0.534976,-1.094495,1.262274,0.045776,-0.430298,0.082397,7.473863,-4.925222,3.770985,0.000000,0.000000,0.000000,0.000000,0.000000,0.000000,20,1,315988757755
-0.534976,-1.094495,1.262083,-0.384521,-0.283813,-0.375366,7.556308,-5.000498,3.814000,0.000000,0.000000,0.000000,0.000000,0.000000,0.000000,20,1,315988757765
-0.534784,-1.094495,1.262083,0.183105,0.274658,0.054932,7.348402,-4.986160,3.903615,0.000000,0.000000,0.000000,0.000000,0.000000,0.000000,20,1,315988757775
-0.534976,-1.094495,1.262274,0.064087,-0.183105,0.366211,7.470278,-4.921637,3.753062,0.000000,0.000000,0.000000,0.000000,0.000000,0.000000,20,1,315988757785
-0.534976,-1.094495,1.262274,-0.311279,-0.119019,-0.338745,7.513293,-5.011252,3.849846,0.000000,0.000000,0.000000,0.000000,0.000000,0.000000,20,1,315988757795
-0.534976,-1.094495,1.262083,0.100708,0.119019,-0.091553,7.344817,-5.004083,3.871353,0.000000,0.000000,0.000000,0.000000,0.000000,0.000000,20,1,315988757805
-0.534976,-1.094495,1.262274,-0.109863,-0.402832,0.119019,7.498955,-4.921637,3.753062,0.000000,0.000000,0.000000,0.000000,0.000000,0.000000,20,1,315988757815
-0.534784,-1.094495,1.262083,-0.375366,-0.265503,-0.357056,7.534801,-5.007667,3.810415,0.000000,0.000000,0.000000,0.000000,0.000000,0.000000,20,1,315988757825
-0.534784,-1.094495,1.262083,0.201416,0.366211,-0.109863,7.377079,-5.000498,3.874938,0.000000,0.000000,0.000000,0.000000,0.000000,0.000000,20,1,315988757835
-0.534784,-1.094495,1.262274,-0.018311,-0.302124,0.219727,7.438017,-4.925222,3.774569,0.000000,0.000000,0.000000,0.000000,0.000000,0.000000,20,1,315988757845
-0.534784,-1.094495,1.262083,-0.228882,-0.137329,-0.283813,7.538385,-5.014836,3.831923,0.000000,0.000000,0.000000,0.000000,0.000000,0.000000,20,1,315988757855
-0.534784,-1.094495,1.262083,0.073242,0.265503,-0.054932,7.369910,-5.004083,3.867769,0.000000,0.000000,0.000000,0.000000,0.000000,0.000000,20,1,315988757865
-0.534784,-1.094495,1.262083,-0.091553,-0.347900,0.064087,7.434432,-4.932391,3.745893,0.000000,0.000000,0.000000,0.000000,0.000000,0.000000,20,1,315988757875
-0.534784,-1.094495,1.262083,-0.430298,-0.256348,-0.274658,7.531216,-5.004083,3.857015,0.000000,0.000000,0.000000,0.000000,0.000000,0.000000,20,1,315988757885
-0.534784,-1.094495,1.262083,0.137329,0.329590,0.045776,7.362740,-4.996913,3.910784,0.000000,0.000000,0.000000,0.000000,0.000000,0.000000,20,1,315988757895
-0.534784,-1.094495,1.262083,0.146484,-0.201416,0.274658,7.459524,-4.932391,3.753062,0.000000,0.000000,0.000000,0.000000,0.000000,0.000000,20,1,315988757905
-0.534784,-1.094495,1.262083,-0.375366,-0.201416,-0.210571,7.541970,-5.014836,3.814000,0.000000,0.000000,0.000000,0.000000,0.000000,0.000000,20,1,315988757915
-0.534784,-1.094495,1.262083,0.045776,0.302124,-0.064087,7.391417,-5.014836,3.867769,0.000000,0.000000,0.000000,0.000000,0.000000,0.000000,20,1,315988757925
-0.534784,-1.094495,1.262083,0.119019,-0.265503,0.128174,7.498955,-4.946729,3.727970,0.000000,0.000000,0.000000,0.000000,0.000000,0.000000,20,1,315988757935
-0.534784,-1.094495,1.262083,-0.320435,-0.228882,-0.274658,7.541970,-4.993329,3.821169,0.000000,0.000000,0.000000,0.000000,0.000000,0.000000,20,1,315988757945
-0.534784,-1.094495,1.262083,0.119019,0.329590,-0.054932,7.380663,-5.011252,3.896445,0.000000,0.000000,0.000000,0.000000,0.000000,0.000000,20,1,315988757955
-0.534784,-1.094495,1.262083,-0.311279,-0.201416,-0.137329,7.595739,-5.011252,3.803246,0.000000,0.000000,0.000000,0.000000,0.000000,0.000000,20,1,315988758005
-0.534784,-1.094495,1.262083,0.292969,0.430298,-0.009155,7.391417,-5.011252,3.853430,0.000000,0.000000,0.000000,0.000000,0.000000,0.000000,20,1,315988758015
-0.534784,-1.094303,1.262274,0.183105,-0.100708,0.265503,7.488201,-4.932391,3.760231,0.000000,0.000000,0.000000,0.000000,0.000000,0.000000,20,1,315988758025
-0.534784,-1.094495,1.262083,-0.256348,-0.091553,-0.238037,7.549139,-4.986160,3.796077,0.000000,0.000000,0.000000,0.000000,0.000000,0.000000,20,1,315988758035
-0.534784,-1.094495,1.262083,0.109863,0.384521,-0.119019,7.427263,-5.000498,3.871353,0.000000,0.000000,0.000000,0.000000,0.000000,0.000000,20,1,315988758045
-0.534784,-1.094303,1.262274,0.018311,-0.357056,0.228882,7.484616,-4.928806,3.738724,0.000000,0.000000,0.000000,0.000000,0.000000,0.000000,20,1,315988758055
-0.534784,-1.094495,1.262083,-0.302124,-0.137329,-0.238037,7.584985,-5.004083,3.806831,0.000000,0.000000,0.000000,0.000000,0.000000,0.000000,20,1,315988758065
-0.534784,-1.094495,1.262083,0.146484,0.512695,-0.054932,7.412925,-5.007667,3.867769,0.000000,0.000000,0.000000,0.000000,0.000000,0.000000,20,1,315988758075
-0.534784,-1.094303,1.262083,0.164795,-0.201416,0.256348,7.438017,-4.935975,3.763816,0.000000,0.000000,0.000000,0.000000,0.000000,0.000000,20,1,315988758085
-0.534784,-1.094495,1.262083,-0.228882,-0.183105,-0.256348,7.534801,-5.000498,3.788908,0.000000,0.000000,0.000000,0.000000,0.000000,0.000000,20,1,315988758095
-0.534784,-1.094495,1.262083,0.128174,0.238037,-0.064087,7.434432,-5.025590,3.871353,0.000000,0.000000,0.000000,0.000000,0.000000,0.000000,20,1,315988758105
-0.534784,-1.094303,1.262083,0.054932,-0.119019,0.256348,7.498955,-4.928806,3.727970,0.000000,0.000000,0.000000,0.000000,0.000000,0.000000,20,1,315988758115
-0.534784,-1.094303,1.262083,0.192261,0.054932,0.201416,7.481032,-4.935975,3.756647,0.000000,0.000000,0.000000,0.000000,0.000000,0.000000,20,1,315988758145
-0.534784,-1.094495,1.262083,-0.265503,-0.274658,-0.164795,7.577816,-4.978990,3.785323,0.000000,0.000000,0.000000,0.000000,0.000000,0.000000,20,1,315988758155
-0.534784,-1.094495,1.262083,0.109863,0.302124,-0.027466,7.445186,-5.025590,3.871353,0.000000,0.000000,0.000000,0.000000,0.000000,0.000000,20,1,315988758165
-0.534784,-1.094303,1.262083,0.137329,-0.137329,0.265503,7.498955,-4.925222,3.763816,0.000000,0.000000,0.000000,0.000000,0.000000,0.000000,20,1,315988758175
-0.534784,-1.094495,1.262083,-0.256348,-0.192261,-0.201416,7.577816,-4.996913,3.760231,0.000000,0.000000,0.000000,0.000000,0.000000,0.000000,20,1,315988758185
-0.534784,-1.094495,1.262083,0.155640,0.485229,0.027466,7.391417,-5.007667,3.885692,0.000000,0.000000,0.000000,0.000000,0.000000,0.000000,20,1,315988758195
-0.534784,-1.094303,1.262083,0.238037,-0.082397,0.256348,7.491786,-4.925222,3.763816,0.000000,0.000000,0.000000,0.000000,0.000000,0.000000,20,1,315988758205
-0.534784,-1.094495,1.262083,-0.283813,-0.100708,-0.091553,7.588569,-5.004083,3.749477,0.000000,0.000000,0.000000,0.000000,0.000000,0.000000,20,1,315988758215
-0.534592,-1.094303,1.262083,0.109863,0.549316,-0.082397,7.412925,-5.014836,3.864184,0.000000,0.000000,0.000000,0.000000,0.000000,0.000000,20,1,315988758225
-0.534784,-1.094303,1.262083,0.137329,-0.238037,0.329590,7.484616,-4.925222,3.763816,0.000000,0.000000,0.000000,0.000000,0.000000,0.000000,20,1,315988758235
-0.534784,-1.094495,1.262083,-0.274658,-0.064087,-0.210571,7.584985,-4.986160,3.767400,0.000000,0.000000,0.000000,0.000000,0.000000,0.000000,20,1,315988758245
-0.534592,-1.094495,1.262083,0.247192,0.549316,-0.091553,7.481032,-5.022005,3.864184,0.000000,0.000000,0.000000,0.000000,0.000000,0.000000,20,1,315988758255
-0.534592,-1.094303,1.262083,0.073242,-0.173950,0.283813,7.470278,-4.932391,3.738724,0.000000,0.000000,0.000000,0.000000,0.000000,0.000000,20,1,315988758265
-0.534592,-1.094495,1.262083,-0.274658,-0.219727,-0.119019,7.610077,-4.996913,3.774569,0.000000,0.000000,0.000000,0.000000,0.000000,0.000000,20,1,315988758275
-0.534592,-1.094495,1.262083,0.192261,0.430298,-0.045776,7.430848,-5.032759,3.878522,0.000000,0.000000,0.000000,0.000000,0.000000,0.000000,20,1,315988758285
-0.534592,-1.094495,1.262083,0.128174,-0.119019,0.219727,7.455940,-4.932391,3.760231,0.000000,0.000000,0.000000,0.000000,0.000000,0.000000,20,1,315988758295
-0.534592,-1.094495,1.262083,-0.183105,-0.155640,-0.228882,7.581400,-5.004083,3.778154,0.000000,0.000000,0.000000,0.000000,0.000000,0.000000,20,1,315988758305
-0.534592,-1.094495,1.262083,0.183105,0.375366,0.000000,7.438017,-5.036344,3.910784,0.000000,0.000000,0.000000,0.000000,0.000000,0.000000,20,1,315988758315
-0.534592,-1.094495,1.262083,0.137329,-0.238037,0.302124,7.477447,-4.946729,3.749477,0.000000,0.000000,0.000000,0.000000,0.000000,0.000000,20,1,315988758325
-0.534592,-1.094495,1.262083,-0.302124,-0.265503,-0.164795,7.577816,-4.986160,3.792492,0.000000,0.000000,0.000000,0.000000,0.000000,0.000000,20,1,315988758335
-0.534592,-1.094495,1.262083,0.073242,0.357056,-0.027466,7.438017,-5.018421,3.900030,0.000000,0.000000,0.000000,0.000000,0.000000,0.000000,20,1,315988758345
-0.534592,-1.094495,1.262083,0.283813,0.009155,0.238037,7.516878,-4.943145,3.749477,0.000000,0.000000,0.000000,0.000000,0.000000,0.000000,20,1,315988758355
-0.534592,-1.094495,1.262083,-0.210571,-0.119019,-0.073242,7.610077,-5.000498,3.738724,0.000000,0.000000,0.000000,0.000000,0.000000,0.000000,20,1,315988758365
-0.534592,-1.094495,1.262083,0.109863,0.393677,-0.100708,7.459524,-5.043513,3.867769,0.000000,0.000000,0.000000,0.000000,0.000000,0.000000,20,1,315988758375
-0.534592,-1.094495,1.262083,0.256348,0.000000,0.274658,7.520462,-4.932391,3.749477,0.000000,0.000000,0.000000,0.000000,0.000000,0.000000,20,1,315988758385
-0.534592,-1.094495,1.262083,-0.274658,-0.366211,-0.155640,7.602908,-4.996913,3.778154,0.000000,0.000000,0.000000,0.000000,0.000000,0.000000,20,1,315988758395
-0.534592,-1.094495,1.262083,0.137329,0.576782,0.091553,7.412925,-5.047098,3.871353,0.000000,0.000000,0.000000,0.000000,0.000000,0.000000,20,1,315988758405
-0.534784,-1.094303,1.262274,0.219727,0.064087,0.247192,7.506124,-4.939560,3.778154,0.000000,0.000000,0.000000,0.000000,0.000000,0.000000,20,1,315988758415
-0.534784,-1.094495,1.262274,-0.155640,-0.192261,-0.128174,7.620831,-4.993329,3.727970,0.000000,0.000000,0.000000,0.000000,0.000000,0.000000,20,1,315988758425
-0.534784,-1.094495,1.262083,0.219727,0.540161,0.036621,7.445186,-5.036344,3.864184,0.000000,0.000000,0.000000,0.000000,0.000000,0.000000,20,1,315988758435
-0.534784,-1.094495,1.262274,0.256348,-0.247192,0.256348,7.488201,-4.943145,3.731554,0.000000,0.000000,0.000000,0.000000,0.000000,0.000000,20,1,315988758445
-0.534784,-1.094495,1.262274,-0.357056,-0.302124,-0.082397,7.602908,-4.982575,3.781739,0.000000,0.000000,0.000000,0.000000,0.000000,0.000000,20,1,315988758455
-0.534784,-1.094495,1.262083,0.173950,0.338745,-0.091553,7.502539,-5.039928,3.871353,0.000000,0.000000,0.000000,0.000000,0.000000,0.000000,20,1,315988758465
-0.534784,-1.094495,1.262274,0.119019,-0.064087,0.347900,7.506124,-4.907299,3.738724,0.000000,0.000000,0.000000,0.000000,0.000000,0.000000,20,1,315988758475
-0.534784,-1.094687,1.262274,-0.201416,-0.219727,-0.219727,7.584985,-4.986160,3.767400,0.000000,0.000000,0.000000,0.000000,0.000000,0.000000,20,1,315988758485
-0.534784,-1.094687,1.262083,0.173950,0.439453,-0.082397,7.473863,-5.036344,3.896445,0.000000,0.000000,0.000000,0.000000,0.000000,0.000000,20,1,315988758495
-0.534784,-1.094495,1.262274,0.192261,-0.155640,0.357056,7.527631,-4.939560,3.727970,0.000000,0.000000,0.000000,0.000000,0.000000,0.000000,20,1,315988758505
-0.534784,-1.094687,1.262083,-0.329590,-0.421143,-0.201416,7.602908,-4.993329,3.756647,0.000000,0.000000,0.000000,0.000000,0.000000,0.000000,20,1,315988758515
-0.534784,-1.094687,1.262083,0.155640,0.494385,-0.045776,7.452355,-5.036344,3.900030,0.000000,0.000000,0.000000,0.000000,0.000000,0.000000,20,1,315988758525
-0.534784,-1.094495,1.262083,0.347900,-0.045776,0.338745,7.516878,-4.939560,3.753062,0.000000,0.000000,0.000000,0.000000,0.000000,0.000000,20,1,315988758535
-0.534784,-1.094687,1.262083,-0.192261,-0.274658,-0.119019,7.592154,-4.993329,3.781739,0.000000,0.000000,0.000000,0.000000,0.000000,0.000000,20,1,315988758545
-0.534784,-1.094687,1.262083,0.082397,0.411987,-0.091553,7.470278,-5.039928,3.903615,0.000000,0.000000,0.000000,0.000000,0.000000,0.000000,20,1,315988758555
-0.534784,-1.094687,1.262083,0.164795,0.064087,0.265503,7.541970,-4.935975,3.770985,0.000000,0.000000,0.000000,0.000000,0.000000,0.000000,20,1,315988758565
-0.534784,-1.094687,1.262083,-0.247192,-0.393677,-0.073242,7.602908,-4.996913,3.756647,0.000000,0.000000,0.000000,0.000000,0.000000,0.000000,20,1,315988758575
-0.534784,-1.094687,1.262083,0.128174,0.439453,-0.091553,7.452355,-5.057851,3.914368,0.000000,0.000000,0.000000,0.000000,0.000000,0.000000,20,1,315988758585
-0.534784,-1.094687,1.262083,0.302124,0.192261,0.302124,7.488201,-4.914468,3.770985,0.000000,0.000000,0.000000,0.000000,0.000000,0.000000,20,1,315988758595
-0.534784,-1.094687,1.262083,-0.100708,-0.128174,-0.155640,7.620831,-5.007667,3.731554,0.000000,0.000000,0.000000,0.000000,0.000000,0.000000,20,1,315988758605
-0.534784,-1.094687,1.262083,0.247192,0.604248,-0.091553,7.495370,-5.057851,3.857015,0.000000,0.000000,0.000000,0.000000,0.000000,0.000000,20,1,315988758615
-0.534784,-1.094495,1.262083,0.320435,-0.128174,0.247192,7.520462,-4.928806,3.756647,0.000000,0.000000,0.000000,0.000000,0.000000,0.000000,20,1,315988758625
-0.534784,-1.094687,1.262083,-0.265503,-0.375366,-0.238037,7.592154,-4.978990,3.745893,0.000000,0.000000,0.000000,0.000000,0.000000,0.000000,20,1,315988758635
-0.534784,-1.094687,1.262083,0.073242,0.622559,-0.192261,7.466693,-5.043513,3.910784,0.000000,0.000000,0.000000,0.000000,0.000000,0.000000,20,1,315988758645
-0.534784,-1.094687,1.262083,0.283813,0.009155,0.393677,7.506124,-4.932391,3.745893,0.000000,0.000000,0.000000,0.000000,0.000000,0.000000,20,1,315988758655
-0.534784,-1.094687,1.262083,-0.119019,-0.201416,-0.128174,7.595739,-5.000498,3.742308,0.000000,0.000000,0.000000,0.000000,0.000000,0.000000,20,1,315988758665
-0.534784,-1.094687,1.262083,0.146484,0.357056,-0.064087,7.509708,-5.047098,3.889276,0.000000,0.000000,0.000000,0.000000,0.000000,0.000000,20,1,315988758675
-0.534784,-1.094687,1.262083,0.201416,0.073242,0.274658,7.502539,-4.918052,3.745893,0.000000,0.000000,0.000000,0.000000,0.000000,0.000000,20,1,315988758685
-0.534784,-1.094687,1.262083,-0.173950,-0.247192,-0.210571,7.588569,-4.986160,3.774569,0.000000,0.000000,0.000000,0.000000,0.000000,0.000000,20,1,315988758695
-0.534784,-1.094687,1.262083,0.073242,0.567627,-0.064087,7.488201,-5.057851,3.903615,0.000000,0.000000,0.000000,0.000000,0.000000,0.000000,20,1,315988758705
-0.534784,-1.094687,1.262083,0.292969,0.183105,0.329590,7.524047,-4.925222,3.760231,0.000000,0.000000,0.000000,0.000000,0.000000,0.000000,20,1,315988758715
-0.534784,-1.094687,1.262083,-0.210571,-0.283813,-0.192261,7.617246,-4.993329,3.760231,0.000000,0.000000,0.000000,0.000000,0.000000,0.000000,20,1,315988758725
-0.534784,-1.094687,1.262083,0.054932,0.402832,-0.137329,7.470278,-5.061436,3.914368,0.000000,0.000000,0.000000,0.000000,0.000000,0.000000,20,1,315988758735
-0.534784,-1.094687,1.262083,0.357056,0.091553,0.411987,7.509708,-4.921637,3.778154,0.000000,0.000000,0.000000,0.000000,0.000000,0.000000,20,1,315988758745
-0.534784,-1.094687,1.262083,-0.228882,-0.137329,-0.064087,7.588569,-5.000498,3.770985,0.000000,0.000000,0.000000,0.000000,0.000000,0.000000,20,1,315988758755
-0.534784,-1.094687,1.262083,0.210571,0.357056,-0.128174,7.473863,-5.061436,3.925122,0.000000,0.000000,0.000000,0.000000,0.000000,0.000000,20,1,315988758765
-0.534784,-1.094687,1.262083,0.393677,0.036621,0.302124,7.538385,-4.925222,3.792492,0.000000,0.000000,0.000000,0.000000,0.000000,0.000000,20,1,315988758775
-0.534784,-1.094687,1.262083,-0.109863,-0.210571,-0.009155,7.599323,-4.978990,3.749477,0.000000,0.000000,0.000000,0.000000,0.000000,0.000000,20,1,315988758785
-0.534784,-1.094687,1.262083,0.082397,0.421143,-0.091553,7.502539,-5.072190,3.907199,0.000000,0.000000,0.000000,0.000000,0.000000,0.000000,20,1,315988758795
-0.534784,-1.094687,1.262083,0.302124,0.018311,0.247192,7.495370,-4.914468,3.785323,0.000000,0.000000,0.000000,0.000000,0.000000,0.000000,20,1,315988758805
-0.534784,-1.094687,1.262083,-0.137329,-0.503540,-0.073242,7.610077,-5.007667,3.738724,0.000000,0.000000,0.000000,0.000000,0.000000,0.000000,20,1,315988758815
-0.534784,-1.094687,1.262083,0.173950,0.512695,-0.137329,7.502539,-5.075774,3.896445,0.000000,0.000000,0.000000,0.000000,0.000000,0.000000,20,1,315988758825
-0.534784,-1.094687,1.262083,0.283813,0.256348,0.311279,7.502539,-4.921637,3.788908,0.000000,0.000000,0.000000,0.000000,0.000000,0.000000,20,1,315988758835
-0.534976,-1.094687,1.262083,-0.036621,-0.210571,-0.128174,7.595739,-4.982575,3.745893,0.000000,0.000000,0.000000,0.000000,0.000000,0.000000,20,1,315988758845
-0.534784,-1.094687,1.262083,0.155640,0.476074,-0.164795,7.506124,-5.075774,3.917953,0.000000,0.000000,0.000000,0.000000,0.000000,0.000000,20,1,315988758855
-0.534976,-1.094687,1.262083,0.366211,0.009155,0.274658,7.559893,-4.950314,3.760231,0.000000,0.000000,0.000000,0.000000,0.000000,0.000000,20,1,315988758865
-0.534976,-1.094687,1.262083,-0.210571,-0.155640,-0.045776,7.602908,-4.996913,3.778154,0.000000,0.000000,0.000000,0.000000,0.000000,0.000000,20,1,315988758875
-0.534976,-1.094687,1.262083,0.283813,0.503540,-0.036621,7.491786,-5.072190,3.953799,0.000000,0.000000,0.000000,0.000000,0.000000,0.000000,20,1,315988758885
-0.534976,-1.094687,1.262083,0.402832,0.338745,0.384521,7.513293,-4.928806,3.788908,0.000000,0.000000,0.000000,0.000000,0.000000,0.000000,20,1,315988758895
-0.534976,-1.094687,1.262083,-0.210571,-0.219727,0.018311,7.599323,-4.964652,3.753062,0.000000,0.000000,0.000000,0.000000,0.000000,0.000000,20,1,315988758905
-0.534976,-1.094687,1.262083,0.000000,0.311279,-0.064087,7.491786,-5.065021,3.914368,0.000000,0.000000,0.000000,0.000000,0.000000,0.000000,20,1,315988758915
-0.534976,-1.094495,1.262083,0.238037,0.054932,0.366211,7.534801,-4.961068,3.828338,0.000000,0.000000,0.000000,0.000000,0.000000,0.000000,20,1,315988758925
-0.534976,-1.094687,1.262083,-0.137329,-0.247192,-0.100708,7.613661,-4.975406,3.774569,0.000000,0.000000,0.000000,0.000000,0.000000,0.000000,20,1,315988758935
-0.534976,-1.094687,1.262083,0.146484,0.421143,-0.201416,7.470278,-5.061436,3.946630,0.000000,0.000000,0.000000,0.000000,0.000000,0.000000,20,1,315988758945
-0.534976,-1.094495,1.262083,0.201416,0.183105,0.311279,7.520462,-4.932391,3.831923,0.000000,0.000000,0.000000,0.000000,0.000000,0.000000,20,1,315988758985
-0.534976,-1.094495,1.262083,-0.155640,-0.265503,-0.018311,7.588569,-4.961068,3.770985,0.000000,0.000000,0.000000,0.000000,0.000000,0.000000,20,1,315988758995
-0.534976,-1.094687,1.262083,0.265503,0.466919,-0.100708,7.495370,-5.061436,3.921537,0.000000,0.000000,0.000000,0.000000,0.000000,0.000000,20,1,315988759005
-0.534976,-1.094495,1.262083,0.357056,0.238037,0.357056,7.498955,-4.939560,3.806831,0.000000,0.000000,0.000000,0.000000,0.000000,0.000000,20,1,315988759015
-0.534976,-1.094495,1.262083,-0.109863,-0.311279,-0.018311,7.606492,-4.986160,3.778154,0.000000,0.000000,0.000000,0.000000,0.000000,0.000000,20,1,315988759025
-0.534976,-1.094495,1.262083,0.000000,0.228882,-0.073242,7.495370,-5.054267,3.946630,0.000000,0.000000,0.000000,0.000000,0.000000,0.000000,20,1,315988759035
-0.534976,-1.094495,1.262083,0.283813,0.100708,0.357056,7.498955,-4.935975,3.817584,0.000000,0.000000,0.000000,0.000000,0.000000,0.000000,20,1,315988759045
-0.534976,-1.094495,1.262274,-0.137329,-0.173950,0.054932,7.595739,-4.982575,3.767400,0.000000,0.000000,0.000000,0.000000,0.000000,0.000000,20,1,315988759055
-0.534976,-1.094495,1.262083,0.183105,0.421143,-0.137329,7.488201,-5.075774,3.925122,0.000000,0.000000,0.000000,0.000000,0.000000,0.000000,20,1,315988759065
-0.534976,-1.094495,1.262274,0.384521,0.302124,0.366211,7.538385,-4.939560,3.810415,0.000000,0.000000,0.000000,0.000000,0.000000,0.000000,20,1,315988759075
-0.534976,-1.094495,1.262274,-0.155640,-0.311279,-0.036621,7.610077,-4.978990,3.774569,0.000000,0.000000,0.000000,0.000000,0.000000,0.000000,20,1,315988759085
-0.534976,-1.094495,1.262083,-0.109863,0.219727,-0.228882,7.477447,-5.075774,3.957383,0.000000,0.000000,0.000000,0.000000,0.000000,0.000000,20,1,315988759095
-0.534976,-1.094495,1.262274,0.292969,0.164795,0.302124,7.520462,-4.928806,3.835507,0.000000,0.000000,0.000000,0.000000,0.000000,0.000000,20,1,315988759105
-0.534976,-1.094495,1.262274,-0.155640,-0.201416,-0.027466,7.617246,-4.975406,3.788908,0.000000,0.000000,0.000000,0.000000,0.000000,0.000000,20,1,315988759115
-0.534976,-1.094687,1.262083,0.137329,0.384521,-0.201416,7.477447,-5.050682,3.946630,0.000000,0.000000,0.000000,0.000000,0.000000,0.000000,20,1,315988759125
-0.534976,-1.094495,1.262274,0.292969,0.274658,0.219727,7.506124,-4.928806,3.835507,0.000000,0.000000,0.000000,30.468750,-59.759521,36.517334,214,122,1731936014130
-0.534976,-1.094495,1.262274,-0.164795,-0.292969,0.000000,7.584985,-4.982575,3.778154,0.000000,0.000000,0.000000,0.000000,0.000000,0.000000,20,1,315988759145
-0.534976,-1.094495,1.262083,0.000000,0.485229,-0.164795,7.470278,-5.061436,3.921537,0.000000,0.000000,0.000000,0.000000,0.000000,0.000000,20,1,315988759155
-0.534976,-1.094495,1.262274,0.302124,0.173950,0.338745,7.509708,-4.964652,3.864184,0.000000,0.000000,0.000000,0.000000,0.000000,0.000000,20,1,315988759165
-0.534976,-1.094495,1.262274,-0.146484,-0.128174,-0.027466,7.613661,-4.986160,3.756647,0.000000,0.000000,0.000000,0.000000,0.000000,0.000000,20,1,315988759175
-0.534976,-1.094495,1.262083,0.219727,0.302124,-0.228882,7.463109,-5.065021,3.960968,0.000000,0.000000,0.000000,0.000000,0.000000,0.000000,20,1,315988759185
-0.534976,-1.094495,1.262274,0.329590,0.173950,0.384521,7.484616,-4.950314,3.878522,0.000000,0.000000,0.000000,0.000000,0.000000,0.000000,20,1,315988759195
-0.534976,-1.094495,1.262274,-0.219727,-0.421143,0.054932,7.606492,-4.957483,3.767400,0.000000,0.000000,0.000000,0.000000,0.000000,0.000000,20,1,315988759205
-0.534976,-1.094495,1.262274,0.045776,0.311279,-0.210571,7.509708,-5.068605,3.914368,0.000000,0.000000,0.000000,0.000000,0.000000,0.000000,20,1,315988759215
-0.534976,-1.094303,1.262274,0.448608,0.283813,0.347900,7.498955,-4.935975,3.821169,0.000000,0.000000,0.000000,0.000000,0.000000,0.000000,20,1,315988759225
-0.534976,-1.094495,1.262274,-0.054932,-0.329590,0.009155,7.628000,-4.968237,3.778154,0.000000,0.000000,0.000000,0.000000,0.000000,0.000000,20,1,315988759235
-0.534976,-1.094495,1.262274,0.183105,0.448608,-0.119019,7.498955,-5.075774,3.960968,0.000000,0.000000,0.000000,0.000000,0.000000,0.000000,20,1,315988759245
-0.534976,-1.094495,1.262274,0.274658,0.082397,0.311279,7.524047,-4.950314,3.871353,0.000000,0.000000,0.000000,0.000000,0.000000,0.000000,20,1,315988759255
-0.534976,-1.094495,1.262274,-0.146484,-0.549316,-0.009155,7.606492,-4.953898,3.763816,0.000000,0.000000,0.000000,0.000000,0.000000,0.000000,20,1,315988759265
-0.534976,-1.094495,1.262274,-0.100708,0.384521,-0.265503,7.473863,-5.093697,3.960968,0.000000,0.000000,0.000000,0.000000,0.000000,0.000000,20,1,315988759275
-0.534976,-1.094495,1.262274,0.375366,0.027466,0.375366,7.520462,-4.935975,3.835507,0.000000,0.000000,0.000000,0.000000,0.000000,0.000000,20,1,315988759285
-0.534976,-1.094495,1.262274,-0.119019,-0.210571,-0.073242,7.595739,-4.964652,3.760231,0.000000,0.000000,0.000000,0.000000,0.000000,0.000000,20,1,315988759295
-0.534976,-1.094495,1.262274,0.000000,0.338745,-0.183105,7.481032,-5.068605,3.950214,0.000000,0.000000,0.000000,0.000000,0.000000,0.000000,20,1,315988759305
-0.534976,-1.094495,1.262274,0.347900,0.173950,0.338745,7.531216,-4.961068,3.857015,0.000000,0.000000,0.000000,0.000000,0.000000,0.000000,20,1,315988759315
-0.534976,-1.094495,1.262274,-0.219727,-0.183105,-0.192261,7.595739,-4.964652,3.785323,0.000000,0.000000,0.000000,0.000000,0.000000,0.000000,20,1,315988759325
-0.534976,-1.094495,1.262083,-0.137329,0.247192,-0.238037,7.441601,-5.054267,3.953799,0.000000,0.000000,0.000000,0.000000,0.000000,0.000000,20,1,315988759335
-0.534976,-1.094495,1.262274,0.448608,0.100708,0.357056,7.498955,-4.943145,3.896445,0.000000,0.000000,0.000000,0.000000,0.000000,0.000000,20,1,315988759345
-0.534976,-1.094495,1.262274,-0.100708,-0.201416,0.009155,7.610077,-4.975406,3.753062,0.000000,0.000000,0.000000,0.000000,0.000000,0.000000,20,1,315988759355
-0.534976,-1.094495,1.262083,0.073242,0.421143,-0.128174,7.470278,-5.061436,3.935876,0.000000,0.000000,0.000000,0.000000,0.000000,0.000000,20,1,315988759365
-0.534784,-1.094495,1.262274,0.329590,0.247192,0.238037,7.481032,-4.964652,3.900030,0.000000,0.000000,0.000000,0.000000,0.000000,0.000000,20,1,315988759375
-0.534976,-1.094495,1.262274,-0.201416,-0.302124,-0.073242,7.606492,-4.971821,3.799662,0.000000,0.000000,0.000000,0.000000,0.000000,0.000000,20,1,315988759385
-0.534784,-1.094495,1.262083,-0.164795,0.366211,-0.238037,7.452355,-5.061436,3.964553,0.000000,0.000000,0.000000,0.000000,0.000000,0.000000,20,1,315988759395
-0.534784,-1.094495,1.262083,0.347900,0.238037,0.375366,7.481032,-4.961068,3.892861,0.000000,0.000000,0.000000,0.000000,0.000000,0.000000,20,1,315988759405
-0.534976,-1.094495,1.262274,-0.045776,-0.164795,-0.009155,7.599323,-4.961068,3.763816,0.000000,0.000000,0.000000,0.000000,0.000000,0.000000,20,1,315988759415
-0.534976,-1.094495,1.262083,0.155640,0.366211,-0.265503,7.506124,-5.072190,3.939460,0.000000,0.000000,0.000000,0.000000,0.000000,0.000000,20,1,315988759425
-0.534784,-1.094495,1.262083,0.265503,0.137329,0.375366,7.473863,-4.950314,3.885692,0.000000,0.000000,0.000000,0.000000,0.000000,0.000000,20,1,315988759435
-0.534976,-1.094495,1.262274,-0.210571,-0.512695,0.018311,7.592154,-4.971821,3.788908,0.000000,0.000000,0.000000,0.000000,0.000000,0.000000,20,1,315988759445
-0.534784,-1.094495,1.262083,0.082397,0.567627,-0.219727,7.481032,-5.075774,3.953799,0.000000,0.000000,0.000000,0.000000,0.000000,0.000000,20,1,315988759455
-0.534784,-1.094495,1.262274,0.402832,0.183105,0.302124,7.495370,-4.961068,3.892861,0.000000,0.000000,0.000000,0.000000,0.000000,0.000000,20,1,315988759465
-0.534976,-1.094495,1.262274,-0.082397,-0.256348,0.018311,7.581400,-4.950314,3.796077,0.000000,0.000000,0.000000,0.000000,0.000000,0.000000,20,1,315988759475
-0.534784,-1.094495,1.262083,-0.054932,0.347900,-0.247192,7.463109,-5.065021,3.964553,0.000000,0.000000,0.000000,0.000000,0.000000,0.000000,20,1,315988759485
-0.534784,-1.094495,1.262274,0.256348,0.183105,0.384521,7.506124,-4.953898,3.853430,0.000000,0.000000,0.000000,0.000000,0.000000,0.000000,20,1,315988759495
-0.534976,-1.094495,1.262274,-0.201416,-0.228882,-0.036621,7.610077,-4.961068,3.774569,0.000000,0.000000,0.000000,0.000000,0.000000,0.000000,20,1,315988759505
